{
  "centers": [
    { "id": "DEL-01", "centerCode": "DEL-01", "name": "Delhi Central Examination Centre", "city": "New Delhi", "state": "Delhi", "lat": 28.6139, "lng": 77.209, "status": "compromised", "risk": 92, "activeCases": 5, "evidenceCount": 14 },
    { "id": "DEL-02", "centerCode": "DEL-02", "name": "Dwarka Examination Centre", "city": "Dwarka, Delhi", "state": "Delhi", "lat": 28.5921, "lng": 77.0460, "status": "investigating", "risk": 54, "activeCases": 2, "evidenceCount": 6 },
    { "id": "MUM-01", "centerCode": "MUM-01", "name": "Mumbai Main Centre", "city": "Mumbai", "state": "Maharashtra", "lat": 19.0760, "lng": 72.8777, "status": "secure", "risk": 12, "activeCases": 0, "evidenceCount": 1 },
    { "id": "MUM-02", "centerCode": "MUM-02", "name": "Navi Mumbai Centre", "city": "Navi Mumbai", "state": "Maharashtra", "lat": 19.0368, "lng": 73.0158, "status": "investigating", "risk": 61, "activeCases": 3, "evidenceCount": 8 },
    { "id": "MUM-03", "centerCode": "MUM-03", "name": "Pune Examination Centre", "city": "Pune", "state": "Maharashtra", "lat": 18.5204, "lng": 73.8567, "status": "secure", "risk": 8, "activeCases": 0, "evidenceCount": 2 },
    { "id": "KOL-01", "centerCode": "KOL-01", "name": "Kolkata North Centre", "city": "Kolkata", "state": "West Bengal", "lat": 22.5726, "lng": 88.3639, "status": "compromised", "risk": 88, "activeCases": 4, "evidenceCount": 11 },
    { "id": "KOL-02", "centerCode": "KOL-02", "name": "Howrah Centre", "city": "Howrah", "state": "West Bengal", "lat": 22.5958, "lng": 88.2636, "status": "investigating", "risk": 47, "activeCases": 2, "evidenceCount": 5 },
    { "id": "BLR-01", "centerCode": "BLR-01", "name": "Bengaluru Central Centre", "city": "Bengaluru", "state": "Karnataka", "lat": 12.9716, "lng": 77.5946, "status": "secure", "risk": 15, "activeCases": 0, "evidenceCount": 3 },
    { "id": "BLR-02", "centerCode": "BLR-02", "name": "Mysuru Examination Centre", "city": "Mysuru", "state": "Karnataka", "lat": 12.2958, "lng": 76.6394, "status": "secure", "risk": 9, "activeCases": 0, "evidenceCount": 0 },
    { "id": "HYD-01", "centerCode": "HYD-01", "name": "Hyderabad Central Centre", "city": "Hyderabad", "state": "Telangana", "lat": 17.3850, "lng": 78.4867, "status": "compromised", "risk": 79, "activeCases": 3, "evidenceCount": 9 },
    { "id": "HYD-02", "centerCode": "HYD-02", "name": "Secunderabad Centre", "city": "Secunderabad", "state": "Telangana", "lat": 17.4399, "lng": 78.4983, "status": "investigating", "risk": 55, "activeCases": 2, "evidenceCount": 4 },
    { "id": "CHE-01", "centerCode": "CHE-01", "name": "Chennai Marina Centre", "city": "Chennai", "state": "Tamil Nadu", "lat": 13.0827, "lng": 80.2707, "status": "secure", "risk": 18, "activeCases": 0, "evidenceCount": 2 },
    { "id": "CHE-02", "centerCode": "CHE-02", "name": "Coimbatore Centre", "city": "Coimbatore", "state": "Tamil Nadu", "lat": 11.0168, "lng": 76.9558, "status": "secure", "risk": 5, "activeCases": 0, "evidenceCount": 0 },
    { "id": "JAI-01", "centerCode": "JAI-01", "name": "Jaipur Main Centre", "city": "Jaipur", "state": "Rajasthan", "lat": 26.9124, "lng": 75.7873, "status": "investigating", "risk": 62, "activeCases": 2, "evidenceCount": 7 },
    { "id": "JAI-02", "centerCode": "JAI-02", "name": "Jodhpur Centre", "city": "Jodhpur", "state": "Rajasthan", "lat": 26.2389, "lng": 73.0243, "status": "secure", "risk": 14, "activeCases": 0, "evidenceCount": 1 },
    { "id": "AHM-01", "centerCode": "AHM-01", "name": "Ahmedabad Central Centre", "city": "Ahmedabad", "state": "Gujarat", "lat": 23.0225, "lng": 72.5714, "status": "secure", "risk": 22, "activeCases": 0, "evidenceCount": 2 },
    { "id": "AHM-02", "centerCode": "AHM-02", "name": "Surat Examination Centre", "city": "Surat", "state": "Gujarat", "lat": 21.1702, "lng": 72.8311, "status": "investigating", "risk": 38, "activeCases": 1, "evidenceCount": 3 },
    { "id": "LKO-01", "centerCode": "LKO-01", "name": "Lucknow Central Centre", "city": "Lucknow", "state": "Uttar Pradesh", "lat": 26.8467, "lng": 80.9462, "status": "investigating", "risk": 71, "activeCases": 3, "evidenceCount": 9 },
    { "id": "LKO-02", "centerCode": "LKO-02", "name": "Kanpur Examination Centre", "city": "Kanpur", "state": "Uttar Pradesh", "lat": 26.4499, "lng": 80.3319, "status": "compromised", "risk": 85, "activeCases": 4, "evidenceCount": 12 },
    { "id": "LKO-03", "centerCode": "LKO-03", "name": "Varanasi Centre", "city": "Varanasi", "state": "Uttar Pradesh", "lat": 25.3176, "lng": 82.9739, "status": "secure", "risk": 20, "activeCases": 0, "evidenceCount": 2 },
    { "id": "PAT-01", "centerCode": "PAT-01", "name": "Patna Main Centre", "city": "Patna", "state": "Bihar", "lat": 25.5941, "lng": 85.1376, "status": "compromised", "risk": 91, "activeCases": 5, "evidenceCount": 15 },
    { "id": "PAT-02", "centerCode": "PAT-02", "name": "Gaya Centre", "city": "Gaya", "state": "Bihar", "lat": 24.7955, "lng": 84.9994, "status": "investigating", "risk": 66, "activeCases": 2, "evidenceCount": 6 },
    { "id": "BHO-01", "centerCode": "BHO-01", "name": "Bhopal Central Centre", "city": "Bhopal", "state": "Madhya Pradesh", "lat": 23.2599, "lng": 77.4126, "status": "secure", "risk": 17, "activeCases": 0, "evidenceCount": 1 },
    { "id": "BHO-02", "centerCode": "BHO-02", "name": "Indore Centre", "city": "Indore", "state": "Madhya Pradesh", "lat": 22.7196, "lng": 75.8577, "status": "investigating", "risk": 43, "activeCases": 1, "evidenceCount": 4 },
    { "id": "CHG-01", "centerCode": "CHG-01", "name": "Chandigarh Centre", "city": "Chandigarh", "state": "Chandigarh", "lat": 30.7333, "lng": 76.7794, "status": "secure", "risk": 11, "activeCases": 0, "evidenceCount": 0 },
    { "id": "GUW-01", "centerCode": "GUW-01", "name": "Guwahati Centre", "city": "Guwahati", "state": "Assam", "lat": 26.1445, "lng": 91.7362, "status": "secure", "risk": 25, "activeCases": 0, "evidenceCount": 2 },
    { "id": "KOCHI-01", "centerCode": "KOCHI-01", "name": "Kochi Centre", "city": "Kochi", "state": "Kerala", "lat": 9.9312, "lng": 76.2673, "status": "secure", "risk": 7, "activeCases": 0, "evidenceCount": 0 },
    { "id": "THIRU-01", "centerCode": "THIRU-01", "name": "Thiruvananthapuram Centre", "city": "Thiruvananthapuram", "state": "Kerala", "lat": 8.5241, "lng": 76.9366, "status": "secure", "risk": 6, "activeCases": 0, "evidenceCount": 0 },
    { "id": "NAG-01", "centerCode": "NAG-01", "name": "Nagpur Centre", "city": "Nagpur", "state": "Maharashtra", "lat": 21.1458, "lng": 79.0882, "status": "investigating", "risk": 49, "activeCases": 2, "evidenceCount": 5 },
    { "id": "RAN-01", "centerCode": "RAN-01", "name": "Ranchi Centre", "city": "Ranchi", "state": "Jharkhand", "lat": 23.3441, "lng": 85.3096, "status": "investigating", "risk": 58, "activeCases": 2, "evidenceCount": 6 },
    { "id": "VIZ-01", "centerCode": "VIZ-01", "name": "Visakhapatnam Centre", "city": "Visakhapatnam", "state": "Andhra Pradesh", "lat": 17.6868, "lng": 83.2185, "status": "secure", "risk": 13, "activeCases": 0, "evidenceCount": 1 },
    { "id": "AMR-01", "centerCode": "AMR-01", "name": "Amritsar Centre", "city": "Amritsar", "state": "Punjab", "lat": 31.6340, "lng": 74.8723, "status": "secure", "risk": 16, "activeCases": 0, "evidenceCount": 1 },
    { "id": "DER-01", "centerCode": "DER-01", "name": "Dehradun Centre", "city": "Dehradun", "state": "Uttarakhand", "lat": 30.3165, "lng": 78.0322, "status": "secure", "risk": 10, "activeCases": 0, "evidenceCount": 0 },
    { "id": "SHIM-01", "centerCode": "SHIM-01", "name": "Shimla Centre", "city": "Shimla", "state": "Himachal Pradesh", "lat": 31.1048, "lng": 77.1734, "status": "secure", "risk": 4, "activeCases": 0, "evidenceCount": 0 },
    { "id": "JAM-01", "centerCode": "JAM-01", "name": "Jammu Centre", "city": "Jammu", "state": "J&K", "lat": 32.7266, "lng": 74.8570, "status": "investigating", "risk": 53, "activeCases": 1, "evidenceCount": 3 },
    { "id": "BHUV-01", "centerCode": "BHUV-01", "name": "Bhubaneswar Centre", "city": "Bhubaneswar", "state": "Odisha", "lat": 20.2961, "lng": 85.8245, "status": "secure", "risk": 19, "activeCases": 0, "evidenceCount": 1 },
    { "id": "RAIP-01", "centerCode": "RAIP-01", "name": "Raipur Centre", "city": "Raipur", "state": "Chhattisgarh", "lat": 21.2514, "lng": 81.6296, "status": "secure", "risk": 23, "activeCases": 0, "evidenceCount": 2 },
    { "id": "GANG-01", "centerCode": "GANG-01", "name": "Gangtok Centre", "city": "Gangtok", "state": "Sikkim", "lat": 27.3389, "lng": 88.6065, "status": "secure", "risk": 3, "activeCases": 0, "evidenceCount": 0 },
    { "id": "AGA-01", "centerCode": "AGA-01", "name": "Agartala Centre", "city": "Agartala", "state": "Tripura", "lat": 23.8315, "lng": 91.2868, "status": "secure", "risk": 14, "activeCases": 0, "evidenceCount": 1 },
    { "id": "SHI-01", "centerCode": "SHI-01", "name": "Shillong Centre", "city": "Shillong", "state": "Meghalaya", "lat": 25.5788, "lng": 91.8933, "status": "secure", "risk": 8, "activeCases": 0, "evidenceCount": 0 }
  ]
}
